{
"type": "FeatureCollection",
"crs": { "type": "name", "properties": { "name": "urn:ogc:def:crs:OGC:1.3:CRS84" } },
"features": [
{ "type": "Feature", "properties": { "name": "國立台灣大學醫學院附設醫院", "addr": "臺北市中正區中山南路7、8號；常德街1號", "district": "中正區", "lng": 121.5183428, "lat": 25.03553921, "phone": "(02)23123456", "total_beds": 2319 }, "geometry": { "type": "Point", "coordinates": [ 121.5183428, 25.03553921 ] } },
{ "type": "Feature", "properties": { "name": "國立臺灣大學醫學院附設醫院兒童醫院", "addr": "臺北市中正區中山南路8號", "district": "中正區", "lng": 121.5187506, "lat": 25.04434314, "phone": "(02)23123456", "total_beds": 286 }, "geometry": { "type": "Point", "coordinates": [ 121.5187506, 25.04434314 ] } },
{ "type": "Feature", "properties": { "name": "郵政醫院（委託中英醫療社團法人經營）", "addr": "臺北市中正區福州街14號", "district": "中正區", "lng": 121.5186982, "lat": 25.02874869, "phone": "(02)23956755", "total_beds": 41 }, "geometry": { "type": "Point", "coordinates": [ 121.5186982, 25.02874869 ] } },
{ "type": "Feature", "properties": { "name": "臺北市立聯合醫院", "addr": "臺北市大同區鄭州路145號", "district": "大同區", "lng": 121.5088874, "lat": 25.05069244, "phone": "(02)25523234", "total_beds": 2929 }, "geometry": { "type": "Point", "coordinates": [ 121.5088874, 25.05069244 ] } },
{ "type": "Feature", "properties": { "name": "台灣基督長老教會馬偕醫療財團法人馬偕紀念醫院", "addr": "臺北市中山區中山北路二段92號", "district": "中山區", "lng": 121.522558, "lat": 25.05888423, "phone": "(02)25433535", "total_beds": 890 }, "geometry": { "type": "Point", "coordinates": [ 121.522558, 25.05888423 ] } },
{ "type": "Feature", "properties": { "name": "台灣基督長老教會馬偕醫療財團法人馬偕兒童醫院", "addr": "臺北市中山區中山北路2段92號", "district": "中山區", "lng": 121.522558, "lat": 25.05888423, "phone": "(02)25433535", "total_beds": 190 }, "geometry": { "type": "Point", "coordinates": [ 121.522558, 25.05888423 ] } },
{ "type": "Feature", "properties": { "name": "協和婦女醫院", "addr": "臺北市中山區松江路85巷5號、93巷6號", "district": "中山區", "lng": 121.5339434, "lat": 25.05027331, "phone": "(02)25072222", "total_beds": 38 }, "geometry": { "type": "Point", "coordinates": [ 121.5339434, 25.05027331 ] } },
{ "type": "Feature", "properties": { "name": "泰安醫院", "addr": "臺北市中山區民權東路二段92巷2之1號", "district": "中山區", "lng": 121.5316407, "lat": 25.06145984, "phone": "(02)25375633", "total_beds": 0 }, "geometry": { "type": "Point", "coordinates": [ 121.5316407, 25.06145984 ] } },
{ "type": "Feature", "properties": { "name": "三軍總醫院松山分院附設民眾診療服務處", "addr": "臺北市松山區健康路131號", "district": "松山區", "lng": 121.5577045, "lat": 25.05394015, "phone": "(02)27462151", "total_beds": 381 }, "geometry": { "type": "Point", "coordinates": [ 121.5577045, 25.05394015 ] } },
{ "type": "Feature", "properties": { "name": "長庚醫療財團法人台北長庚紀念醫院", "addr": "臺北市松山區敦化北路199號、197號、臺北市松山區敦化北路199巷6號", "district": "松山區", "lng": 121.5485556, "lat": 25.05023183, "phone": "(02)27135211", "total_beds": 253 }, "geometry": { "type": "Point", "coordinates": [ 121.5485556, 25.05023183 ] } },
{ "type": "Feature", "properties": { "name": "基督復臨安息日會醫療財團法人臺安醫院", "addr": "臺北市松山區八德路二段424、426號", "district": "松山區", "lng": 121.5444842, "lat": 25.04758836, "phone": "(02)27718151", "total_beds": 384 }, "geometry": { "type": "Point", "coordinates": [ 121.5444842, 25.04758836 ] } },
{ "type": "Feature", "properties": { "name": "博仁綜合醫院", "addr": "臺北市松山區光復北路66號、68號", "district": "松山區", "lng": 121.557695, "lat": 25.04990354, "phone": "(02)25786677", "total_beds": 198 }, "geometry": { "type": "Point", "coordinates": [ 121.557695, 25.04990354 ] } },
{ "type": "Feature", "properties": { "name": "培靈醫院", "addr": "臺北市松山區八德路四段355號", "district": "松山區", "lng": 121.5682821, "lat": 25.04940059, "phone": "(02)27606116", "total_beds": 82 }, "geometry": { "type": "Point", "coordinates": [ 121.5682821, 25.04940059 ] } },
{ "type": "Feature", "properties": { "name": "國立臺灣大學醫學院附設醫院癌醫中心分院", "addr": "臺北市大安區基隆路 3段155巷57號 ", "district": "大安區", "lng": null, "lat": null, "phone": "(02)23220322", "total_beds": 493 }, "geometry": null },
{ "type": "Feature", "properties": { "name": "中山醫療社團法人中山醫院", "addr": "臺北市大安區仁愛路四段112巷11號", "district": "大安區", "lng": 121.5497106, "lat": 25.03655173, "phone": "(02)27081166", "total_beds": 175 }, "geometry": { "type": "Point", "coordinates": [ 121.5497106, 25.03655173 ] } },
{ "type": "Feature", "properties": { "name": "國泰醫療財團法人國泰綜合醫院", "addr": "臺北市大安區仁愛路四段266巷6號、280號", "district": "大安區", "lng": 121.5528014, "lat": 25.03717848, "phone": "(02)27082121", "total_beds": 782 }, "geometry": { "type": "Point", "coordinates": [ 121.5528014, 25.03717848 ] } },
{ "type": "Feature", "properties": { "name": "中心診所醫療財團法人中心綜合醫院", "addr": "臺北市大安區忠孝東路四段77號", "district": "大安區", "lng": 121.5473297, "lat": 25.04186487, "phone": "(02)27510221", "total_beds": 169 }, "geometry": { "type": "Point", "coordinates": [ 121.5473297, 25.04186487 ] } },
{ "type": "Feature", "properties": { "name": "宏恩醫療財團法人宏恩綜合醫院", "addr": "臺北市大安區仁愛路四段71巷1號、仁愛路四段61號、仁愛路四段91巷16號", "district": "大安區", "lng": 121.5470295, "lat": 25.03849645, "phone": "(02)27713161", "total_beds": 115 }, "geometry": { "type": "Point", "coordinates": [ 121.5470295, 25.03849645 ] } },
{ "type": "Feature", "properties": { "name": "秀傳醫院", "addr": "臺北市大安區光復南路116巷1、3、5號", "district": "大安區", "lng": 121.5568623, "lat": 25.04311217, "phone": "(02)27717172", "total_beds": 64 }, "geometry": { "type": "Point", "coordinates": [ 121.5568623, 25.04311217 ] } },
{ "type": "Feature", "properties": { "name": "國立臺灣大學醫學院附設醫院北護分院", "addr": "臺北市萬華區康定路37號、臺北市萬華區內江街87號及89號 ", "district": "萬華區", "lng": 121.5025511, "lat": 25.04222858, "phone": "(02)23717101", "total_beds": 93 }, "geometry": { "type": "Point", "coordinates": [ 121.5025511, 25.04222858 ] } },
{ "type": "Feature", "properties": { "name": "西園醫療社團法人西園醫院", "addr": "臺北市萬華區西園路二段266、268、270、272、276號、185、187、189號", "district": "萬華區", "lng": 121.4945402, "lat": 25.0277877, "phone": "(02)23329888", "total_beds": 157 }, "geometry": { "type": "Point", "coordinates": [ 121.4945402, 25.0277877 ] } },
{ "type": "Feature", "properties": { "name": "財團法人台灣省私立台北仁濟院附設仁濟醫院", "addr": "臺北市萬華區廣州街200、243號", "district": "萬華區", "lng": 121.5042335, "lat": 25.03642709, "phone": "(02)23021131", "total_beds": 22 }, "geometry": { "type": "Point", "coordinates": [ 121.5042335, 25.03642709 ] } },
{ "type": "Feature", "properties": { "name": "同仁院醫療財團法人萬華醫院", "addr": "臺北市萬華區中華路二段606巷6號", "district": "萬華區", "lng": 121.5098259, "lat": 25.02405006, "phone": "(02)23059292", "total_beds": 137 }, "geometry": { "type": "Point", "coordinates": [ 121.5098259, 25.02405006 ] } },
{ "type": "Feature", "properties": { "name": "臺北醫學大學附設醫院", "addr": "臺北市信義區吳興街252號、250號", "district": "信義區", "lng": 121.5636377, "lat": 25.02663801, "phone": "(02)27372181", "total_beds": 738 }, "geometry": { "type": "Point", "coordinates": [ 121.5636377, 25.02663801 ] } },
{ "type": "Feature", "properties": { "name": "新光醫療財團法人新光吳火獅紀念醫院", "addr": "臺北市士林區文昌路95號及士商路51號", "district": "士林區", "lng": 121.5202887, "lat": 25.0962409, "phone": "(02)28332211", "total_beds": 829 }, "geometry": { "type": "Point", "coordinates": [ 121.5202887, 25.0962409 ] } },
{ "type": "Feature", "properties": { "name": "三軍總醫院北投分院附設民眾診療服務處", "addr": "臺北市北投區新民路60號、中和街250號", "district": "北投區", "lng": 121.5097013, "lat": 25.1398048, "phone": "(02)28959808", "total_beds": 558 }, "geometry": { "type": "Point", "coordinates": [ 121.5097013, 25.1398048 ] } },
{ "type": "Feature", "properties": { "name": "臺北榮民總醫院", "addr": "臺北市北投區石牌路二段201號、322號", "district": "北投區", "lng": 121.5191658, "lat": 25.11918228, "phone": "(02)28712121", "total_beds": 3175 }, "geometry": { "type": "Point", "coordinates": [ 121.5191658, 25.11918228 ] } },
{ "type": "Feature", "properties": { "name": "臺北市立關渡醫院─委託臺北榮民總醫院經營", "addr": "臺北市北投區知行路二二五巷12號", "district": "北投區", "lng": 121.4663577, "lat": 25.12018758, "phone": "(02)28587000", "total_beds": 179 }, "geometry": { "type": "Point", "coordinates": [ 121.4663577, 25.12018758 ] } },
{ "type": "Feature", "properties": { "name": "振興醫療財團法人振興醫院", "addr": "臺北市北投區振興街45號", "district": "北投區", "lng": 121.5224005, "lat": 25.11754255, "phone": "(02)28264400", "total_beds": 1028 }, "geometry": { "type": "Point", "coordinates": [ 121.5224005, 25.11754255 ] } },
{ "type": "Feature", "properties": { "name": "醫療財團法人辜公亮基金會和信治癌中心醫院", "addr": "臺北市北投區立德路125號", "district": "北投區", "lng": 121.4720113, "lat": 25.12834055, "phone": "(02)28970011", "total_beds": 303 }, "geometry": { "type": "Point", "coordinates": [ 121.4720113, 25.12834055 ] } },
{ "type": "Feature", "properties": { "name": "臺北市北投健康管理醫院", "addr": "臺北市北投區中和街2號", "district": "北投區", "lng": 121.5037059, "lat": 25.13758475, "phone": "(02)28988686", "total_beds": 21 }, "geometry": { "type": "Point", "coordinates": [ 121.5037059, 25.13758475 ] } },
{ "type": "Feature", "properties": { "name": "三軍總醫院附設民眾診療服務處", "addr": "臺北市內湖區成功路二段325號；臺北市中正區汀州路3段40號", "district": "內湖區", "lng": 121.5919821, "lat": 25.07180042, "phone": "(02)87923311", "total_beds": 1846 }, "geometry": { "type": "Point", "coordinates": [ 121.5919821, 25.07180042 ] } },
{ "type": "Feature", "properties": { "name": "康寧醫療財團法人康寧醫院", "addr": "臺北市內湖區成功路五段420巷26號", "district": "內湖區", "lng": 121.6087792, "lat": 25.07595162, "phone": "(02)26345500", "total_beds": 235 }, "geometry": { "type": "Point", "coordinates": [ 121.6087792, 25.07595162 ] } },
{ "type": "Feature", "properties": { "name": "中國醫藥大學附設醫院臺北分院", "addr": "臺北市內湖區內湖路二段360號、362號", "district": "內湖區", "lng": 121.5905997, "lat": 25.08212491, "phone": "(02)27919696", "total_beds": 116 }, "geometry": { "type": "Point", "coordinates": [ 121.5905997, 25.08212491 ] } },
{ "type": "Feature", "properties": { "name": "德威國際牙醫口腔醫院", "addr": "臺北市內湖區內湖路一段659號1樓", "district": "內湖區", "lng": null, "lat": null, "phone": "(02)27990123", "total_beds": 11 }, "geometry": null },
{ "type": "Feature", "properties": { "name": "臺北市立萬芳醫院-委託臺北醫學大學辦理", "addr": "臺北市文山區興隆路三段111號", "district": "文山區", "lng": null, "lat": null, "phone": "(02)29307930", "total_beds": 761 }, "geometry": null },
{ "type": "Feature", "properties": { "name": "景美醫院", "addr": "臺北市文山區羅斯福路六段280號、文山區育英街2巷18號、文山區羅斯福路六段276巷1號1樓", "district": "文山區", "lng": 121.5405334, "lat": 24.99001925, "phone": "(02)29331010", "total_beds": 72 }, "geometry": { "type": "Point", "coordinates": [ 121.5405334, 24.99001925 ] } }
]
}
